{
  "type": "FeatureCollection",
  "crs": {
    "type": "name",
    "properties": { "name": "urn:ogc:def:crs:OGC:1.3:CRS84" }
  },
  "features": [
    {
      "type": "Feature",
      "properties": {
        "Name": "Photo 1 Meandering Creek",
        "urlhtml": "media/Photo1.jpg"
      },
      "geometry": {
        "type": "Point",
        "coordinates": [-97.4550571231742, 32.772133509669409]
      }
    },
    {
      "type": "Feature",
      "properties": {
        "Name": "Photo 2 Meandering Creek",
        "urlhtml": "media/Photo2.jpg"
      },
      "geometry": {
        "type": "Point",
        "coordinates": [-97.455053363185201, 32.772171173620301]
      }
    },
    {
      "type": "Feature",
      "properties": {
        "Name": "Photo 3 Meandering Creek",
        "urlhtml": "media/Photo3.jpg"
      },
      "geometry": {
        "type": "Point",
        "coordinates": [-97.455103091290312, 32.772132657732762]
      }
    },
    {
      "type": "Feature",
      "properties": {
        "Name": "Photo 8 Stratigraphy along Trinity River looking N",
        "urlhtml": "media/Photo8.jpg"
      },
      "geometry": {
        "type": "Point",
        "coordinates": [-97.417846294190625, 32.765524139722061]
      }
    },
    {
      "type": "Feature",
      "properties": {
        "Name": "Photo 4 Stratigrapy along Trinity River Looking N",
        "urlhtml": "media/Photo4.jpg"
      },
      "geometry": {
        "type": "Point",
        "coordinates": [-97.414325276670553, 32.766084108083753]
      }
    },
    {
      "type": "Feature",
      "properties": {
        "Name": "Photo 5 Stratigraphy of Trinity River looking N",
        "urlhtml": "media/Photo5.jpg"
      },
      "geometry": {
        "type": "Point",
        "coordinates": [-97.414312088281733, 32.766082598124179]
      }
    },
    {
      "type": "Feature",
      "properties": {
        "Name": "Photo 6 Trinity River Falls looking S",
        "urlhtml": "media/Photo6.jpg"
      },
      "geometry": {
        "type": "Point",
        "coordinates": [-97.417719616722863, 32.765321813480831]
      }
    },
    {
      "type": "Feature",
      "properties": {
        "Name": "Photo 7 Trinity River Falls looking S",
        "urlhtml": "media/Photo7.jpg"
      },
      "geometry": {
        "type": "Point",
        "coordinates": [-97.41771126617509, 32.76531890665661]
      }
    },
    {
      "type": "Feature",
      "properties": {
        "Name": "Photo 9 Meandering Creek",
        "urlhtml": "media/Photo9.png"
      },
      "geometry": {
        "type": "Point",
        "coordinates": [-97.45510440650726, 32.772171210357705]
      }
    }
  ]
}
